[
  {
    "store_id": "c8f3d560-1e2d-4c7b-a478-1fa731865321",
    "name": "Naperville Brew",
    "address": "100 Water St",
    "city": "Naperville",
    "state": "IL",
    "zip_code": "60540",
    "latitude": 41.7726,
    "longitude": -88.1501,
    "has_drive_thru": true,
    "hours_start": "06:00",
    "hours_end": "20:00"
  },
  {
    "store_id": "9c1f02f7-8a2e-4f1d-8a7e-2b617af8478a",
    "name": "Peoria Perks",
    "address": "100 Adams St",
    "city": "Peoria",
    "state": "IL",
    "zip_code": "61602",
    "latitude": 40.6936,
    "longitude": -89.5889,
    "has_drive_thru": true,
    "hours_start": "06:30",
    "hours_end": "20:00"
  },
  {
    "store_id": "3dc67218-b120-4c9c-84ea-c00bd264042f",
    "name": "Juneau Java",
    "address": "100 Marine Way",
    "city": "Juneau",
    "state": "AK",
    "zip_code": "99801",
    "latitude": 58.3019,
    "longitude": -134.4197,
    "has_drive_thru": false,
    "hours_start": "07:00",
    "hours_end": "19:00"
  },
  {
    "store_id": "e1e95ff1-57cb-4e4e-9c1f-021f58d0a7ec",
    "name": "Bismarck Brews",
    "address": "123 5th St",
    "city": "Bismarck",
    "state": "ND",
    "zip_code": "58501",
    "latitude": 46.8083,
    "longitude": -100.7837,
    "has_drive_thru": false,
    "hours_start": "06:30",
    "hours_end": "20:00"
  },
  {
    "store_id": "457c2bd1-f8f1-43a0-a7ed-2b6efb5a2bb4",
    "name": "Cheyenne Cup",
    "address": "400 Capitol Ave",
    "city": "Cheyenne",
    "state": "WY",
    "zip_code": "82001",
    "latitude": 41.1398,
    "longitude": -104.8202,
    "has_drive_thru": true,
    "hours_start": "06:00",
    "hours_end": "20:30"
  },
  {
    "store_id": "b2d3a8c7-789f-4687-bb8b-f185ea0cb3db",
    "name": "Helena Roast",
    "address": "101 Last Chance Gulch",
    "city": "Helena",
    "state": "MT",
    "zip_code": "59601",
    "latitude": 46.5884,
    "longitude": -112.0245,
    "has_drive_thru": false,
    "hours_start": "06:30",
    "hours_end": "20:00"
  },
  {
    "store_id": "43f4b4d8-b604-4e4e-bb87-77d9c2c24b11",
    "name": "Billings Brew",
    "address": "200 Broadway Ave",
    "city": "Billings",
    "state": "MT",
    "zip_code": "59101",
    "latitude": 45.7833,
    "longitude": -108.5007,
    "has_drive_thru": true,
    "hours_start": "05:30",
    "hours_end": "21:00"
  },
  {
    "store_id": "9e8773cc-5521-4b11-bbc6-eec7db3d3e4a",
    "name": "Concord Coffee",
    "address": "300 N Main St",
    "city": "Concord",
    "state": "NH",
    "zip_code": "03301",
    "latitude": 43.2081,
    "longitude": -71.5376,
    "has_drive_thru": false,
    "hours_start": "07:00",
    "hours_end": "20:00"
  },
  {
    "store_id": "eb89010d-1553-4bc9-8f70-2a9616ec3475",
    "name": "Charleston Café",
    "address": "500 King St",
    "city": "Charleston",
    "state": "WV",
    "zip_code": "25301",
    "latitude": 38.3498,
    "longitude": -81.6326,
    "has_drive_thru": true,
    "hours_start": "06:00",
    "hours_end": "21:00"
  },
  {
    "store_id": "4f25c057-66e1-4a1a-8124-c3f638e90b36",
    "name": "Trenton Taps",
    "address": "600 State St",
    "city": "Trenton",
    "state": "NJ",
    "zip_code": "08608",
    "latitude": 40.2171,
    "longitude": -74.7429,
    "has_drive_thru": false,
    "hours_start": "07:00",
    "hours_end": "20:00"
  },
  {
    "store_id": "7e2aeb6f-7ac1-4f9b-9433-1048b67de2d5",
    "name": "Hartford Grounds",
    "address": "200 Asylum St",
    "city": "Hartford",
    "state": "CT",
    "zip_code": "06103",
    "latitude": 41.767,
    "longitude": -72.677,
    "has_drive_thru": false,
    "hours_start": "06:30",
    "hours_end": "20:30"
  },
  {
    "store_id": "d992e964-2cd9-4ac3-b8d1-8efbe79db65f",
    "name": "Topeka Espresso",
    "address": "100 Kansas Ave",
    "city": "Topeka",
    "state": "KS",
    "zip_code": "66603",
    "latitude": 39.0489,
    "longitude": -95.678,
    "has_drive_thru": true,
    "hours_start": "06:00",
    "hours_end": "21:00"
  },
  {
    "store_id": "e1d3c9b3-b321-4d34-8ae0-2c9099d1a801",
    "name": "Lexington Latte",
    "address": "301 Vine St",
    "city": "Lexington",
    "state": "KY",
    "zip_code": "40507",
    "latitude": 38.0498,
    "longitude": -84.4972,
    "has_drive_thru": false,
    "hours_start": "06:30",
    "hours_end": "20:30"
  },
  {
    "store_id": "fa6b8db1-9b7d-4f63-b79c-47fd994c8f0e",
    "name": "Wichita Brew",
    "address": "500 Douglas Ave",
    "city": "Wichita",
    "state": "KS",
    "zip_code": "67202",
    "latitude": 37.6889,
    "longitude": -97.3361,
    "has_drive_thru": true,
    "hours_start": "06:00",
    "hours_end": "21:00"
  },
  {
    "store_id": "c922e789-3d10-4b3f-b471-42f7fd3b7a91",
    "name": "Providence Perk",
    "address": "400 Westminster St",
    "city": "Providence",
    "state": "RI",
    "zip_code": "02903",
    "latitude": 41.8236,
    "longitude": -71.4222,
    "has_drive_thru": false,
    "hours_start": "07:00",
    "hours_end": "20:00"
  },
  {
    "store_id": "a2a52d19-7b5c-4e6e-99dc-78e5f4f579a1",
    "name": "Albany Roast",
    "address": "100 State St",
    "city": "Albany",
    "state": "NY",
    "zip_code": "12207",
    "latitude": 42.6526,
    "longitude": -73.7562,
    "has_drive_thru": false,
    "hours_start": "06:30",
    "hours_end": "21:00"
  },
  {
    "store_id": "34e9136b-b674-4c3a-b310-57dbe2694797",
    "name": "Manchester Mug",
    "address": "123 Elm St",
    "city": "Manchester",
    "state": "NH",
    "zip_code": "03101",
    "latitude": 42.9956,
    "longitude": -71.4548,
    "has_drive_thru": true,
    "hours_start": "06:00",
    "hours_end": "21:30"
  },
  {
    "store_id": "f663d345-9052-40a5-aad9-9e1fcb946c72",
    "name": "Sioux Falls Sip",
    "address": "350 Phillips Ave",
    "city": "Sioux Falls",
    "state": "SD",
    "zip_code": "57104",
    "latitude": 43.5446,
    "longitude": -96.7311,
    "has_drive_thru": true,
    "hours_start": "05:30",
    "hours_end": "20:30"
  },
  {
    "store_id": "b7d2c2c4-60c0-4c9b-9c3e-382e66c9a5c3",
    "name": "Fargo Beans",
    "address": "250 Broadway N",
    "city": "Fargo",
    "state": "ND",
    "zip_code": "58102",
    "latitude": 46.8772,
    "longitude": -96.7898,
    "has_drive_thru": false,
    "hours_start": "06:30",
    "hours_end": "20:00"
  },
  {
    "store_id": "bc0cde87-e9ec-4ce4-9853-d5a6c607108b",
    "name": "Montpelier Grounds",
    "address": "300 Main St",
    "city": "Montpelier",
    "state": "VT",
    "zip_code": "05602",
    "latitude": 44.2601,
    "longitude": -72.5754,
    "has_drive_thru": false,
    "hours_start": "07:00",
    "hours_end": "19:30"
  },
  {
    "store_id": "8738e412-9a0d-4e44-8ee7-c6484d893df4",
    "name": "Columbia Coffee",
    "address": "400 Main St",
    "city": "Columbia",
    "state": "SC",
    "zip_code": "29201",
    "latitude": 34.0007,
    "longitude": -81.0348,
    "has_drive_thru": true,
    "hours_start": "06:00",
    "hours_end": "21:00"
  },
  {
    "store_id": "0aef5e9e-8a4c-4b2e-ae34-3b888f872908",
    "name": "Dover Drip",
    "address": "200 State St",
    "city": "Dover",
    "state": "DE",
    "zip_code": "19901",
    "latitude": 39.1582,
    "longitude": -75.5244,
    "has_drive_thru": false,
    "hours_start": "07:00",
    "hours_end": "20:00"
  },
  {
    "store_id": "914d4e24-22fc-4b10-9f8c-5ad8cfa8cd2d",
    "name": "Boulder Beans",
    "address": "123 Pearl St",
    "city": "Boulder",
    "state": "CO",
    "zip_code": "80302",
    "latitude": 40.0176,
    "longitude": -105.2797,
    "has_drive_thru": false,
    "hours_start": "06:00",
    "hours_end": "20:00"
  },
  {
    "store_id": "5f7209b0-62b7-4127-bff9-e5a5462b2422",
    "name": "Madison Mornings",
    "address": "456 State St",
    "city": "Madison",
    "state": "WI",
    "zip_code": "53703",
    "latitude": 43.0731,
    "longitude": -89.4012,
    "has_drive_thru": true,
    "hours_start": "05:30",
    "hours_end": "21:00"
  },
  {
    "store_id": "dc64d3c1-0c71-4f6e-ae90-86bc86d8cb21",
    "name": "Detroit Roast",
    "address": "789 Woodward Ave",
    "city": "Detroit",
    "state": "MI",
    "zip_code": "48226",
    "latitude": 42.3314,
    "longitude": -83.0458,
    "has_drive_thru": false,
    "hours_start": "07:00",
    "hours_end": "20:30"
  },
  {
    "store_id": "25eb6aa2-d158-49a3-8bdf-1ad8acac9cb4",
    "name": "Pittsburgh Pour",
    "address": "100 Market St",
    "city": "Pittsburgh",
    "state": "PA",
    "zip_code": "15222",
    "latitude": 40.4406,
    "longitude": -79.9959,
    "has_drive_thru": true,
    "hours_start": "06:00",
    "hours_end": "22:00"
  },
  {
    "store_id": "fd72a3ea-d3ea-4b2a-b0dc-4493d465d8d7",
    "name": "Omaha Coffee Co.",
    "address": "800 Farnam St",
    "city": "Omaha",
    "state": "NE",
    "zip_code": "68102",
    "latitude": 41.2565,
    "longitude": -95.9345,
    "has_drive_thru": false,
    "hours_start": "06:30",
    "hours_end": "20:00"
  },
  {
    "store_id": "2c92e3f6-1e75-4b1f-8f36-ff4e675f3f01",
    "name": "Boise Brews",
    "address": "200 Capitol Blvd",
    "city": "Boise",
    "state": "ID",
    "zip_code": "83702",
    "latitude": 43.615,
    "longitude": -116.2023,
    "has_drive_thru": true,
    "hours_start": "06:00",
    "hours_end": "21:00"
  },
  {
    "store_id": "3e96f6d2-9469-4b52-8d26-f7a007c57323",
    "name": "Des Moines Drip",
    "address": "600 Locust St",
    "city": "Des Moines",
    "state": "IA",
    "zip_code": "50309",
    "latitude": 41.5868,
    "longitude": -93.625,
    "has_drive_thru": false,
    "hours_start": "06:30",
    "hours_end": "20:30"
  },
  {
    "store_id": "7db4c847-7c5a-4ec4-bd26-0dbcd8cf0d24",
    "name": "Santa Fe Steam",
    "address": "400 Canyon Rd",
    "city": "Santa Fe",
    "state": "NM",
    "zip_code": "87501",
    "latitude": 35.687,
    "longitude": -105.9378,
    "has_drive_thru": false,
    "hours_start": "07:00",
    "hours_end": "19:30"
  },
  {
    "store_id": "09e5d7b2-c04a-4702-aec3-0a9183cf11de",
    "name": "Jackson Java",
    "address": "100 Capitol St",
    "city": "Jackson",
    "state": "MS",
    "zip_code": "39201",
    "latitude": 32.2988,
    "longitude": -90.1848,
    "has_drive_thru": true,
    "hours_start": "06:00",
    "hours_end": "20:00"
  },
  {
    "store_id": "8c18c7e1-2b4a-4422-80e3-df1e5c1f3d11",
    "name": "Little Rock Latte",
    "address": "123 Main St",
    "city": "Little Rock",
    "state": "AR",
    "zip_code": "72201",
    "latitude": 34.7465,
    "longitude": -92.2896,
    "has_drive_thru": false,
    "hours_start": "07:00",
    "hours_end": "20:00"
  },
  {
    "store_id": "afc95113-7cf6-4c79-9bbf-06de63f2c61a",
    "name": "Savannah Sip",
    "address": "101 Broughton St",
    "city": "Savannah",
    "state": "GA",
    "zip_code": "31401",
    "latitude": 32.0809,
    "longitude": -81.0912,
    "has_drive_thru": false,
    "hours_start": "06:30",
    "hours_end": "21:00"
  },
  {
    "store_id": "e5084389-42a9-49f6-ae34-5c88428d3df9",
    "name": "Portland Pour",
    "address": "333 NW 23rd Ave",
    "city": "Portland",
    "state": "OR",
    "zip_code": "97210",
    "latitude": 45.5286,
    "longitude": -122.6985,
    "has_drive_thru": false,
    "hours_start": "07:00",
    "hours_end": "20:00"
  },
  {
    "store_id": "ff17160f-0f57-4cf7-a2a3-dc9d0f6bfe41",
    "name": "Minneapolis Mugs",
    "address": "1200 Nicollet Mall",
    "city": "Minneapolis",
    "state": "MN",
    "zip_code": "55403",
    "latitude": 44.9726,
    "longitude": -93.2815,
    "has_drive_thru": true,
    "hours_start": "06:00",
    "hours_end": "21:30"
  },
  {
    "store_id": "be0b8e68-99f3-4d0d-a3e1-3409b94f8d9e",
    "name": "Charlotte Cup",
    "address": "1100 S Tryon St",
    "city": "Charlotte",
    "state": "NC",
    "zip_code": "28203",
    "latitude": 35.222,
    "longitude": -80.8464,
    "has_drive_thru": true,
    "hours_start": "05:30",
    "hours_end": "21:00"
  },
  {
    "store_id": "123ab456-cdef-7890-abcd-ef1234567890",
    "name": "Salt Lake Roast",
    "address": "900 S State St",
    "city": "Salt Lake City",
    "state": "UT",
    "zip_code": "84111",
    "latitude": 40.7516,
    "longitude": -111.888,
    "has_drive_thru": false,
    "hours_start": "06:00",
    "hours_end": "20:30"
  },
  {
    "store_id": "89bcdf12-3456-78ab-cdef-456789abcd12",
    "name": "New Orleans Brew",
    "address": "700 Magazine St",
    "city": "New Orleans",
    "state": "LA",
    "zip_code": "70130",
    "latitude": 29.9499,
    "longitude": -90.0701,
    "has_drive_thru": false,
    "hours_start": "07:00",
    "hours_end": "22:00"
  },
  {
    "store_id": "bcdef123-4567-89ab-cdef-23456789abcd",
    "name": "Anchorage Roast",
    "address": "400 W 5th Ave",
    "city": "Anchorage",
    "state": "AK",
    "zip_code": "99501",
    "latitude": 61.2176,
    "longitude": -149.8958,
    "has_drive_thru": false,
    "hours_start": "07:30",
    "hours_end": "19:00"
  },
  {
    "store_id": "c1d2e3f4-5678-90ab-cdef-34567890abcd",
    "name": "Indianapolis Espresso",
    "address": "300 Monument Cir",
    "city": "Indianapolis",
    "state": "IN",
    "zip_code": "46204",
    "latitude": 39.7684,
    "longitude": -86.1581,
    "has_drive_thru": false,
    "hours_start": "06:00",
    "hours_end": "21:00"
  },
  {
    "store_id": "d4e5f6a7-7890-abcd-ef01-23456789bcde",
    "name": "Las Vegas Latte",
    "address": "450 Fremont St",
    "city": "Las Vegas",
    "state": "NV",
    "zip_code": "89101",
    "latitude": 36.1719,
    "longitude": -115.1443,
    "has_drive_thru": true,
    "hours_start": "05:00",
    "hours_end": "23:00"
  },
  {
    "store_id": "e6f7g8h9-90ab-cdef-1234-567890abcdef",
    "name": "Kansas City Cups",
    "address": "700 Main St",
    "city": "Kansas City",
    "state": "MO",
    "zip_code": "64105",
    "latitude": 39.1037,
    "longitude": -94.5831,
    "has_drive_thru": false,
    "hours_start": "06:30",
    "hours_end": "20:00"
  },
  {
    "store_id": "ab92f360-c29e-4e5f-9e0f-4f01be21e681",
    "name": "Mission Grounds",
    "address": "500 Valencia St",
    "city": "San Francisco",
    "state": "CA",
    "zip_code": "94110",
    "latitude": 37.7599,
    "longitude": -122.4210,
    "has_drive_thru": false,
    "hours_start": "06:30",
    "hours_end": "20:00"
  },
  {
    "store_id": "e0e57446-6ad7-45c3-9c26-7c7fefdc3520",
    "name": "Logan Square Coffee",
    "address": "2500 N Milwaukee Ave",
    "city": "Chicago",
    "state": "IL",
    "zip_code": "60647",
    "latitude": 41.9265,
    "longitude": -87.7012,
    "has_drive_thru": false,
    "hours_start": "07:00",
    "hours_end": "21:00"
  },
  {
    "store_id": "edc72998-d7bb-4d7a-8910-78ff0ad5c7e5",
    "name": "Brooklyn Beans",
    "address": "200 Bedford Ave",
    "city": "Brooklyn",
    "state": "NY",
    "zip_code": "11249",
    "latitude": 40.7171,
    "longitude": -73.9572,
    "has_drive_thru": false,
    "hours_start": "06:00",
    "hours_end": "22:00"
  },
  {
    "store_id": "eb32dd7a-346b-42d6-a10c-4a1cb611dc65",
    "name": "Capitol Hill Grind",
    "address": "120 1st St SE",
    "city": "Washington",
    "state": "DC",
    "zip_code": "20003",
    "latitude": 38.8877,
    "longitude": -77.0059,
    "has_drive_thru": false,
    "hours_start": "06:00",
    "hours_end": "21:00"
  },
  {
    "store_id": "53c6e14e-83f7-4b7d-a19a-553263c0d56e",
    "name": "Austin Roast",
    "address": "601 Congress Ave",
    "city": "Austin",
    "state": "TX",
    "zip_code": "78701",
    "latitude": 30.2672,
    "longitude": -97.7431,
    "has_drive_thru": true,
    "hours_start": "05:30",
    "hours_end": "22:00"
  },
  {
    "store_id": "4e1edb02-e276-47dc-bdea-6fa0cb0de6c6",
    "name": "Phoenix Espresso",
    "address": "100 N Central Ave",
    "city": "Phoenix",
    "state": "AZ",
    "zip_code": "85004",
    "latitude": 33.4484,
    "longitude": -112.0740,
    "has_drive_thru": true,
    "hours_start": "06:00",
    "hours_end": "21:00"
  },
  {
    "store_id": "cbe80400-9916-42c7-b3bb-f7a378b8aeb3",
    "name": "Denver Drip",
    "address": "1700 Lincoln St",
    "city": "Denver",
    "state": "CO",
    "zip_code": "80203",
    "latitude": 39.7420,
    "longitude": -104.9862,
    "has_drive_thru": false,
    "hours_start": "06:30",
    "hours_end": "20:30"
  },
  {
    "store_id": "a1d07e0e-07fa-4d53-bbe4-fb7fa3fd3f38",
    "name": "Cambridge Coffee",
    "address": "1400 Massachusetts Ave",
    "city": "Cambridge",
    "state": "MA",
    "zip_code": "02138",
    "latitude": 42.3736,
    "longitude": -71.1097,
    "has_drive_thru": false,
    "hours_start": "07:00",
    "hours_end": "20:00"
  },
  {
    "store_id": "5c451fe3-b6a0-4bc2-88a7-8b41a7f8de9d",
    "name": "Orlando Cafe",
    "address": "600 Orange Ave",
    "city": "Orlando",
    "state": "FL",
    "zip_code": "32801",
    "latitude": 28.5383,
    "longitude": -81.3792,
    "has_drive_thru": true,
    "hours_start": "06:00",
    "hours_end": "22:00"
  },
  {
    "store_id": "a343c85c-2695-4204-a4f7-50299b4b33f2",
    "name": "Nashville Brew",
    "address": "800 Broadway",
    "city": "Nashville",
    "state": "TN",
    "zip_code": "37203",
    "latitude": 36.1627,
    "longitude": -86.7816,
    "has_drive_thru": false,
    "hours_start": "07:00",
    "hours_end": "21:00"
  },
  {
    "store_id": "2f1a5f08-7b4e-4a20-9437-92b71f387001",
    "name": "Downtown Cafe",
    "address": "123 Main St",
    "city": "Seattle",
    "state": "WA",
    "zip_code": "98101",
    "latitude": 47.6097,
    "longitude": -122.3331,
    "has_drive_thru": false,
    "hours_start": "06:00",
    "hours_end": "21:00"
  },
  {
    "store_id": "e3dc0532-18a9-4be8-baf9-325d7e2abf44",
    "name": "Northside Brew",
    "address": "456 North Ave",
    "city": "Lynnwood",
    "state": "WA",
    "zip_code": "98036",
    "latitude": 47.8279,
    "longitude": -122.3054,
    "has_drive_thru": true,
    "hours_start": "05:30",
    "hours_end": "22:00"
  },
  {
    "store_id": "f46301f4-2b83-47db-bb30-68997950c64c",
    "name": "Eastlake Espresso",
    "address": "789 Eastlake Ave",
    "city": "Bellevue",
    "state": "WA",
    "zip_code": "98004",
    "latitude": 47.6102,
    "longitude": -122.2015,
    "has_drive_thru": false,
    "hours_start": "07:00",
    "hours_end": "20:00"
  },
  {
    "store_id": "7b015245-296c-4e8c-9102-12c239cfad2e",
    "name": "Rainier Roast",
    "address": "901 Rainier Ave",
    "city": "Renton",
    "state": "WA",
    "zip_code": "98057",
    "latitude": 47.4803,
    "longitude": -122.2075,
    "has_drive_thru": true,
    "hours_start": "06:00",
    "hours_end": "22:00"
  },
  {
    "store_id": "b8e8bb9d-1207-4ab3-bd96-97cf7f814dd6",
    "name": "Capitol Perk",
    "address": "1501 4th Ave",
    "city": "Seattle",
    "state": "WA",
    "zip_code": "98101",
    "latitude": 47.6101,
    "longitude": -122.3375,
    "has_drive_thru": false,
    "hours_start": "06:30",
    "hours_end": "20:30"
  },
  {
    "store_id": "14960a5f-e679-4cc5-90f5-7b3646c15857",
    "name": "Bothell Beans",
    "address": "321 Bothell Way",
    "city": "Bothell",
    "state": "WA",
    "zip_code": "98011",
    "latitude": 47.7623,
    "longitude": -122.2055,
    "has_drive_thru": true,
    "hours_start": "05:00",
    "hours_end": "23:00"
  },
  {
    "store_id": "12d9aa6b-6244-4c39-b80f-24a36f53cf3b",
    "name": "Westside Roast",
    "address": "777 Westlake Ave",
    "city": "Seattle",
    "state": "WA",
    "zip_code": "98109",
    "latitude": 47.6223,
    "longitude": -122.3382,
    "has_drive_thru": false,
    "hours_start": "07:00",
    "hours_end": "20:00"
  },
  {
    "store_id": "2a94b9f4-97f2-44a3-aab6-9f04a7f7b5ed",
    "name": "Everett Espresso",
    "address": "888 Broadway",
    "city": "Everett",
    "state": "WA",
    "zip_code": "98201",
    "latitude": 47.9790,
    "longitude": -122.2021,
    "has_drive_thru": true,
    "hours_start": "05:30",
    "hours_end": "21:30"
  },
  {
    "store_id": "6ff2be48-3a69-4c6e-84b9-f36c2f628317",
    "name": "Tacoma Taps",
    "address": "999 Pacific Ave",
    "city": "Tacoma",
    "state": "WA",
    "zip_code": "98402",
    "latitude": 47.2529,
    "longitude": -122.4443,
    "has_drive_thru": false,
    "hours_start": "06:00",
    "hours_end": "21:00"
  },
  {
    "store_id": "90c78d6b-4f99-4232-97c8-1c5b0e8d63e7",
    "name": "Shoreline Brew",
    "address": "432 Aurora Ave N",
    "city": "Shoreline",
    "state": "WA",
    "zip_code": "98133",
    "latitude": 47.7564,
    "longitude": -122.3415,
    "has_drive_thru": true,
    "hours_start": "05:00",
    "hours_end": "22:00"
  },
  {
    "store_id": "e0cc017a-b68b-4fa0-b95c-fd228d50bbfd",
    "name": "Redmond Roast",
    "address": "555 Cleveland St",
    "city": "Redmond",
    "state": "WA",
    "zip_code": "98052",
    "latitude": 47.6739,
    "longitude": -122.1215,
    "has_drive_thru": false,
    "hours_start": "06:30",
    "hours_end": "21:00"
  },
  {
    "store_id": "37eaf5c5-926c-462f-b9eb-9d2c2e850c99",
    "name": "Issaquah Grounds",
    "address": "101 Front St",
    "city": "Issaquah",
    "state": "WA",
    "zip_code": "98027",
    "latitude": 47.5301,
    "longitude": -122.0336,
    "has_drive_thru": false,
    "hours_start": "07:00",
    "hours_end": "20:00"
  }
]